[{"name":"Negonation","category_code":"web","raised_amount":0,"location":{"type":"Point","coordinates":[40.463667,-3.74922]},"description":null,"address1":"","address2":"","zip_code":"","city":"","country_code":"ESP","latitude":40.463667,"longitude":-3.74922},{"name":"Fon","category_code":"mobile","raised_amount":44000000,"location":{"type":"Point","coordinates":[40.530724,-3.632687]},"description":"","address1":"Calle Quintanavides 15","address2":"2-1","zip_code":"28050","city":"Madrid","country_code":"ESP","latitude":40.530724,"longitude":-3.632687},{"name":"eyeOS","category_code":"enterprise","raised_amount":1000000,"location":{"type":"Point","coordinates":[41.3854855,2.1702872]},"description":"HQ","address1":"La Rambla 140 4C","address2":"","zip_code":"08002","city":"Barcelona","country_code":"ESP","latitude":41.3854855,"longitude":2.1702872},{"name":"]project-open[","category_code":"software","raised_amount":0,"location":{"type":"Point","coordinates":[41.383182,2.163697]},"description":"","address1":"Ronda de Sant Anton\u00e3, 51, 1o 2a","address2":"","zip_code":"08011","city":"Barcelona","country_code":"ESP","latitude":41.383182,"longitude":2.163697},{"name":"Starfish Community Group","category_code":"advertising","raised_amount":0,"location":{"type":"Point","coordinates":[41.387917,2.169919]},"description":"","address1":"Major de Sarria 11, 2-1","address2":"","zip_code":"08017","city":"Barcelona","country_code":"ESP","latitude":41.387917,"longitude":2.169919},{"name":"Pixoo","category_code":"web","raised_amount":0,"location":{"type":"Point","coordinates":[40.463667,-3.74922]},"description":null,"address1":"","address2":"","zip_code":"","city":"","country_code":"ESP","latitude":40.463667,"longitude":-3.74922},{"name":"Buongiorno","category_code":"mobile","raised_amount":0,"location":{"type":"Point","coordinates":[40.4487974,-3.6697641]},"description":"Spain","address1":"Calle Javier Ferrero 13-15","address2":"","zip_code":"28002","city":"Madrid","country_code":"ESP","latitude":40.4487974,"longitude":-3.6697641},{"name":"Swotti","category_code":"public_relations","raised_amount":0,"location":{"type":"Point","coordinates":[40.416741,-3.70325]},"description":null,"address1":"","address2":"","zip_code":"","city":"Madrid","country_code":"ESP","latitude":40.416741,"longitude":-3.70325},{"name":"AsesorSeguros","category_code":"web","raised_amount":0,"location":{"type":"Point","coordinates":[40.497716,-3.647842]},"description":null,"address1":"","address2":"","zip_code":"28050","city":"Madrid","country_code":"ESP","latitude":40.497716,"longitude":-3.647842},{"name":"Spain Holiday","category_code":"public_relations","raised_amount":0,"location":{"type":"Point","coordinates":[36.732544,-4.381867]},"description":"HQ","address1":"Paseo Cerrado de Calderon 13 local 21","address2":"Cerrado de Calderon","zip_code":"29018","city":"Malaga","country_code":"ESP","latitude":36.732544,"longitude":-4.381867},{"name":"eRepublik","category_code":"games_video","raised_amount":2750000,"location":{"type":"Point","coordinates":[40.43094,-3.6952896]},"description":"Office","address1":"Almagro 22","address2":"","zip_code":"28010","city":"Madrid","country_code":"ESP","latitude":40.43094,"longitude":-3.6952896},{"name":"Trovit","category_code":"ecommerce","raised_amount":600000,"location":{"type":"Point","coordinates":[41.388769,2.1299487]},"description":"","address1":"Diagonal 601, 9\u00aa","address2":"","zip_code":"08028","city":"Barcelona","country_code":"ESP","latitude":41.388769,"longitude":2.1299487},{"name":"BMAT","category_code":null,"raised_amount":0,"location":{"type":"Point","coordinates":[41.406335,2.192023]},"description":null,"address1":"Carrer de Llacuna 162","address2":"","zip_code":"08018","city":"Barcelona","country_code":"ESP","latitude":41.406335,"longitude":2.192023},{"name":"NotePub","category_code":"web","raised_amount":0,"location":{"type":"Point","coordinates":[40.416741,-3.70325]},"description":null,"address1":"","address2":"","zip_code":"","city":"Madrid","country_code":"ESP","latitude":40.416741,"longitude":-3.70325},{"name":"Futurlink","category_code":"mobile","raised_amount":7624000,"location":{"type":"Point","coordinates":[41.396553,2.189241]},"description":"","address1":"Passeig de Gracia 49","address2":"","zip_code":"08018","city":"Barcelona","country_code":"ESP","latitude":41.396553,"longitude":2.189241},{"name":"Wuapi","category_code":"games_video","raised_amount":0,"location":{"type":"Point","coordinates":[41.387917,2.169919]},"description":null,"address1":"","address2":"","zip_code":"","city":"Barcelona","country_code":"ESP","latitude":41.387917,"longitude":2.169919},{"name":"Ipoki","category_code":"mobile","raised_amount":0,"location":{"type":"Point","coordinates":[43.371491,-8.39597]},"description":null,"address1":"","address2":"","zip_code":"","city":"A Coru\u00c3\u00b1a","country_code":"ESP","latitude":43.371491,"longitude":-8.39597},{"name":"FeedzZ","category_code":"web","raised_amount":0,"location":{"type":"Point","coordinates":[40.4722272,-3.6532523]},"description":"","address1":"Totana 2,3d","address2":"","zip_code":"28033","city":"Madrid","country_code":"ESP","latitude":40.4722272,"longitude":-3.6532523},{"name":"vLex","category_code":"legal","raised_amount":4000000,"location":{"type":"Point","coordinates":[41.392852,2.168021]},"description":"VLEX HQ (Barcelona)","address1":"Consell de Cent 334","address2":"","zip_code":"E08009","city":"Barcelona","country_code":"ESP","latitude":41.392852,"longitude":2.168021},{"name":"Jobisjob","category_code":"web","raised_amount":0,"location":{"type":"Point","coordinates":[41.487094,2.07732]},"description":"Jobisjob.com","address1":"Avda. Alcalde Barnils, 64 - 68","address2":"Sant Cugat del Valles","zip_code":"08174","city":"Barcelona","country_code":"ESP","latitude":41.487094,"longitude":2.07732},{"name":"GeoMe","category_code":"mobile","raised_amount":300000,"location":{"type":"Point","coordinates":[41.387411,2.168518]},"description":"HQ","address1":"Rambla de Catalunya 77, 1B","address2":"","zip_code":"08007","city":"Barcelona","country_code":"ESP","latitude":41.387411,"longitude":2.168518},{"name":"SYSCOM","category_code":"software","raised_amount":0,"location":{"type":"Point","coordinates":[40.553845,-3.899508]},"description":"Madrid Office","address1":"Rosa de Lima 1","address2":"","zip_code":"28290","city":"Las Rozas","country_code":"ESP","latitude":40.553845,"longitude":-3.899508},{"name":"Next Limit","category_code":"software","raised_amount":0,"location":{"type":"Point","coordinates":[40.455219,-3.650703]},"description":"Headquarters","address1":"\u00c3\u0081ngel Cavero 2","address2":"","zip_code":"28043","city":"Madrid","country_code":"ESP","latitude":40.455219,"longitude":-3.650703},{"name":"Forvo","category_code":"web","raised_amount":0,"location":{"type":"Point","coordinates":[43.3135579,-1.9820361]},"description":"San Sebasti\u00e1n","address1":"","address2":"","zip_code":"20006","city":"San Sebasti\u00e1n","country_code":"ESP","latitude":43.3135579,"longitude":-1.9820361},{"name":"Veedia","category_code":"mobile","raised_amount":0,"location":{"type":"Point","coordinates":[40.456586,-3.647013]},"description":"Corporate Headquarters","address1":"Calle Toronga 23","address2":"","zip_code":"28043","city":"Madrid","country_code":"ESP","latitude":40.456586,"longitude":-3.647013},{"name":"Cyloop","category_code":"games_video","raised_amount":0,"location":{"type":"Point","coordinates":[40.5288449,-3.6429907]},"description":"Madrid Office","address1":"Avda. de Bruselas 38-B 4","address2":"Alcobendas","zip_code":"28108","city":"Madrid","country_code":"ESP","latitude":40.5288449,"longitude":-3.6429907},{"name":"ipsojobs","category_code":"software","raised_amount":0,"location":{"type":"Point","coordinates":[41.406248,2.163194]},"description":"World Headquarters","address1":"Pi i Margall, 7","address2":"baixos 2a","zip_code":"08024","city":"Barcelona","country_code":"ESP","latitude":41.406248,"longitude":2.163194},{"name":"Solaiemes","category_code":"public_relations","raised_amount":685000,"location":{"type":"Point","coordinates":[40.382338,-3.773844]},"description":"Solaiemes Headquarter","address1":"Av\/ General Fanjul","address2":"2-Bis, office 3-5","zip_code":"28044","city":"Madrid","country_code":"ESP","latitude":40.382338,"longitude":-3.773844},{"name":"MEDDIA","category_code":"public_relations","raised_amount":0,"location":{"type":"Point","coordinates":[41.4018094,2.1815648]},"description":"Headquarters","address1":"Av. Diagonal 237","address2":"","zip_code":"08013","city":"Barcelona","country_code":"ESP","latitude":41.4018094,"longitude":2.1815648},{"name":"mmCHANNEL","category_code":"other","raised_amount":2000000,"location":{"type":"Point","coordinates":[40.456204,-3.813122]},"description":"Headquarters","address1":"C\/ Joaquin Turina, 2","address2":"Planta 1","zip_code":"28224","city":"Pozuelo de Alarcon","country_code":"ESP","latitude":40.456204,"longitude":-3.813122},{"name":"Videoplaza","category_code":"advertising","raised_amount":15920000,"location":{"type":"Point","coordinates":[40.4596242,-3.6923285]},"description":"Madrid","address1":"Forum Business Center c\/ Capit\u00e1n Haya","address2":"1 planta 15 Edificio Eurocentro","zip_code":"28020","city":"Madrid","country_code":"ESP","latitude":40.4596242,"longitude":-3.6923285},{"name":"AtelMedia","category_code":"software","raised_amount":0,"location":{"type":"Point","coordinates":[40.416741,-3.70325]},"description":"","address1":"","address2":"","zip_code":"","city":"Madrid","country_code":"ESP","latitude":40.416741,"longitude":-3.70325},{"name":"Nuroa","category_code":"search","raised_amount":3000000,"location":{"type":"Point","coordinates":[41.3916792,2.1775706]},"description":"Offices","address1":"Carrer de Bailen 7","address2":"","zip_code":"08010","city":"Barcelona","country_code":"ESP","latitude":41.3916792,"longitude":2.1775706},{"name":"Festuc","category_code":"mobile","raised_amount":0,"location":{"type":"Point","coordinates":[41.387917,2.169919]},"description":"HQ","address1":"","address2":"","zip_code":"","city":"Barcelona","country_code":"ESP","latitude":41.387917,"longitude":2.169919},{"name":"Bermi Labs","category_code":"web","raised_amount":0,"location":{"type":"Point","coordinates":[41.538143,2.452718]},"description":"Corporate Headquarters","address1":"Passeig del Callao","address2":"","zip_code":"08301","city":"Barcelona","country_code":"ESP","latitude":41.538143,"longitude":2.452718},{"name":"Digital Assets Deployment","category_code":"ecommerce","raised_amount":0,"location":{"type":"Point","coordinates":[40.42046,-3.678121]},"description":"Corporate Headquarters","address1":"Doctor Castelo 10","address2":"Local 1","zip_code":"28009","city":"Madrid","country_code":"ESP","latitude":40.42046,"longitude":-3.678121},{"name":"Daily Flat Rental","category_code":"ecommerce","raised_amount":0,"location":{"type":"Point","coordinates":[40.412323,-3.703248]},"description":"Central Office","address1":"Lavapies 26 1A","address2":"","zip_code":"28012","city":"Madrid","country_code":"ESP","latitude":40.412323,"longitude":-3.703248},{"name":"3scale","category_code":"enterprise","raised_amount":5000000,"location":{"type":"Point","coordinates":[41.406335,2.192023]},"description":"3scale SPAIN","address1":"C\/Napols 187, 8","address2":"","zip_code":"08013","city":"Barcelona","country_code":"ESP","latitude":41.406335,"longitude":2.192023},{"name":"Daily Flat Rental","category_code":"ecommerce","raised_amount":0,"location":{"type":"Point","coordinates":[40.412323,-3.703248]},"description":"Central Office","address1":"Lavapies 26 1A","address2":"","zip_code":"28012","city":"Madrid","country_code":"ESP","latitude":40.412323,"longitude":-3.703248},{"name":"3scale","category_code":"enterprise","raised_amount":5000000,"location":{"type":"Point","coordinates":[41.406335,2.192023]},"description":"3scale SPAIN","address1":"C\/Napols 187, 8","address2":"","zip_code":"08013","city":"Barcelona","country_code":"ESP","latitude":41.406335,"longitude":2.192023},{"name":"Zonablu Networks","category_code":"mobile","raised_amount":0,"location":{"type":"Point","coordinates":[38.349114,-0.48931]},"description":"Head office","address1":"C. Maestro Gaztambide 2 3\u00c2\u00ba C","address2":"","zip_code":"03004","city":"Alicante","country_code":"ESP","latitude":38.349114,"longitude":-0.48931},{"name":"Uselabs","category_code":"web","raised_amount":0,"location":{"type":"Point","coordinates":[41.483253,2.331805]},"description":"Barcelona Office","address1":"Agricultura 16-18","address2":"2.9","zip_code":"08320","city":"El Masnou","country_code":"ESP","latitude":41.483253,"longitude":2.331805},{"name":"Modo Marketing","category_code":"consulting","raised_amount":0,"location":{"type":"Point","coordinates":[39.64073,-0.421944]},"description":"Spanish Office","address1":"","address2":"Naquera","zip_code":"46119","city":"Valencia","country_code":"ESP","latitude":39.64073,"longitude":-0.421944},{"name":"Widgadget","category_code":"advertising","raised_amount":0,"location":{"type":"Point","coordinates":[41.392701,2.156538]},"description":"Headquarter","address1":"184 rossello at 1","address2":"","zip_code":"08008","city":"Barcelona","country_code":"ESP","latitude":41.392701,"longitude":2.156538},{"name":"Spaceblue","category_code":"mobile","raised_amount":0,"location":{"type":"Point","coordinates":[28.962064,-13.556529]},"description":"Spaceblue Headquarters","address1":"Gongora 38","address2":"","zip_code":"35500","city":"Arrecife","country_code":"ESP","latitude":28.962064,"longitude":-13.556529},{"name":"Olivos by Design","category_code":"advertising","raised_amount":0,"location":{"type":"Point","coordinates":[36.492548,-4.72689]},"description":"Head Office","address1":"Mijas Costa","address2":"","zip_code":"289650","city":"Malaga","country_code":"ESP","latitude":36.492548,"longitude":-4.72689},{"name":"Dilogs","category_code":"web","raised_amount":0,"location":{"type":"Point","coordinates":[41.4424496,1.8619165]},"description":"Headquarters","address1":"Moli nou 15","address2":"","zip_code":"08790","city":"Gelida","country_code":"ESP","latitude":41.4424496,"longitude":1.8619165},{"name":"Adoos","category_code":"web","raised_amount":0,"location":{"type":"Point","coordinates":[40.432883,-3.8166758]},"description":"Adoos Classifieds","address1":"Calle Luis Garcia 5, 1 E","address2":"Pozuelo de Alarcon","zip_code":"28223","city":"Madrid","country_code":"ESP","latitude":40.432883,"longitude":-3.8166758},{"name":"Vertical Social Networks","category_code":"enterprise","raised_amount":0,"location":{"type":"Point","coordinates":[41.41259,2.143797]},"description":"World Headquarters","address1":"","address2":"","zip_code":"08023","city":"Barcelona","country_code":"ESP","latitude":41.41259,"longitude":2.143797},{"name":"Wysiwyg","category_code":"consulting","raised_amount":190000,"location":{"type":"Point","coordinates":[40.4494619,-3.7077788]},"description":"WYSIWYG","address1":"Calle Aranjuez 7","address2":"","zip_code":"28039","city":"Madrid","country_code":"ESP","latitude":40.4494619,"longitude":-3.7077788},{"name":"Qapacity","category_code":"other","raised_amount":0,"location":{"type":"Point","coordinates":[41.3953856,2.1681311]},"description":"Barcelona Headquarters","address1":"91 Bruc","address2":"","zip_code":"08009","city":"Barcelona","country_code":"ESP","latitude":41.3953856,"longitude":2.1681311},{"name":"Tractis","category_code":"web","raised_amount":0,"location":{"type":"Point","coordinates":[41.3762002,2.1897317]},"description":"Tractis","address1":"Carrer Sant Miquel 122, 5\u00c2\u00ba-3\u00c2\u00aa","address2":"","zip_code":"08003","city":"Barcelona","country_code":"ESP","latitude":41.3762002,"longitude":2.1897317},{"name":"metoCube","category_code":"software","raised_amount":0,"location":{"type":"Point","coordinates":[40.4204601,-3.6781213]},"description":"Madrid office","address1":"Doctor Castelo 10","address2":"","zip_code":"28009","city":"Madrid","country_code":"ESP","latitude":40.4204601,"longitude":-3.6781213},{"name":"pomeloTV","category_code":"software","raised_amount":0,"location":{"type":"Point","coordinates":[40.4367771,-3.6685036]},"description":"headquarters","address1":"Marques de Monteagudo,18","address2":"","zip_code":"28028","city":"Madrid","country_code":"ESP","latitude":40.4367771,"longitude":-3.6685036},{"name":"MediBANK","category_code":"web","raised_amount":0,"location":{"type":"Point","coordinates":[40.4718534,-3.8203307]},"description":"Central","address1":"Gobelas, 17","address2":"","zip_code":"28023","city":"Madrid","country_code":"ESP","latitude":40.4718534,"longitude":-3.8203307},{"name":"Neurotic","category_code":"web","raised_amount":0,"location":{"type":"Point","coordinates":[41.3887383,2.1756189]},"description":"World Headquarters","address1":"C\/Ortigosa 14","address2":"Planta 3 Despacho 25","zip_code":"08003","city":"Barcelona","country_code":"ESP","latitude":41.3887383,"longitude":2.1756189},{"name":"Meytel","category_code":"public_relations","raised_amount":0,"location":{"type":"Point","coordinates":[40.4511364,-3.6096649]},"description":"","address1":"Villamiel de C\u00c3\u00a1ceres 13","address2":"","zip_code":"28042","city":"Madrid","country_code":"ESP","latitude":40.4511364,"longitude":-3.6096649},{"name":"Heralsoft","category_code":"web","raised_amount":0,"location":{"type":"Point","coordinates":[43.5222205,-5.665828]},"description":"Mini Office","address1":"Rio Nervion 12","address2":"","zip_code":"33210","city":"Gijon","country_code":"ESP","latitude":43.5222205,"longitude":-5.665828},{"name":"doonde","category_code":"other","raised_amount":0,"location":{"type":"Point","coordinates":[41.4063346,2.1920231]},"description":"Haedquarters","address1":"Llacuna 162","address2":"","zip_code":"08018","city":"Barcelona","country_code":"ESP","latitude":41.4063346,"longitude":2.1920231},{"name":"Striker Manager","category_code":"software","raised_amount":0,"location":{"type":"Point","coordinates":[41.4063346,2.1920231]},"description":"World Headquarters","address1":"Llacuna 162","address2":"","zip_code":"08018","city":"Barcelona","country_code":"ESP","latitude":41.4063346,"longitude":2.1920231},{"name":"Tengaged","category_code":"games_video","raised_amount":15000,"location":{"type":"Point","coordinates":[41.4241228,2.1634249]},"description":"Main","address1":"C\/Pedrell","address2":"","zip_code":"08032","city":"Barcelona","country_code":"ESP","latitude":41.4241228,"longitude":2.1634249},{"name":"GIM Geomatics","category_code":"other","raised_amount":0,"location":{"type":"Point","coordinates":[43.3492183,-4.0551649]},"description":"Cantabria Office","address1":"C\/ Poeta Jos\u00c3\u00a9 Lu\u00c3\u00ads Hidalgo, 5","address2":"Con frente a Calle Jes\u00c3\u00bas Cancio","zip_code":"39470","city":"Torrelavega","country_code":"ESP","latitude":43.3492183,"longitude":-4.0551649},{"name":"Busuu","category_code":"social","raised_amount":4700000,"location":{"type":"Point","coordinates":[40.4225487,-3.6830316]},"description":"","address1":"Calle Columela 2, 1D","address2":"","zip_code":"28001","city":"Madrid","country_code":"ESP","latitude":40.4225487,"longitude":-3.6830316},{"name":"tarifas24","category_code":"public_relations","raised_amount":0,"location":{"type":"Point","coordinates":[40.4304536,-3.7105118]},"description":"HQ","address1":"","address2":"","zip_code":"28015","city":"Madrid","country_code":"ESP","latitude":40.4304536,"longitude":-3.7105118},{"name":"Publicadigital","category_code":"software","raised_amount":0,"location":{"type":"Point","coordinates":[40.4291944,-3.6768945]},"description":"","address1":"C\/ General D\u00c3\u00adaz Porlier 47, Bajo D","address2":"","zip_code":"28001","city":"Madrid","country_code":"ESP","latitude":40.4291944,"longitude":-3.6768945},{"name":"Fotohoo","category_code":"games_video","raised_amount":0,"location":{"type":"Point","coordinates":[41.387917,2.1699187]},"description":"Barcelona Headquarters","address1":"","address2":"","zip_code":"","city":"Barcelona","country_code":"ESP","latitude":41.387917,"longitude":2.1699187},{"name":"Cierzo Development","category_code":"advertising","raised_amount":0,"location":{"type":"Point","coordinates":[41.6820833,-0.8874201]},"description":"","address1":"Maria de luna 11","address2":"","zip_code":"50017","city":"Zaragoza","country_code":"ESP","latitude":41.6820833,"longitude":-0.8874201},{"name":"NetAsturias Internet","category_code":"web","raised_amount":0,"location":{"type":"Point","coordinates":[43.3459015,-5.36175]},"description":"NetAsturias Group","address1":"Covadonga 12","address2":"","zip_code":"33530","city":"Infiesto (Asturias)","country_code":"ESP","latitude":43.3459015,"longitude":-5.36175},{"name":"Entropy Computational Services","category_code":"games_video","raised_amount":0,"location":{"type":"Point","coordinates":[40.4380872,-3.6760635]},"description":"World Headquarters","address1":"C\/ Madrid 10, 2-B","address2":"Getafe","zip_code":"28901","city":"Madrid","country_code":"ESP","latitude":40.4380872,"longitude":-3.6760635},{"name":"Social Gaming Platform","category_code":"network_hosting","raised_amount":0,"location":{"type":"Point","coordinates":[40.4086268,-3.9970381]},"description":"Headquarters","address1":"C\/Alberto Juzdado 5","address2":"","zip_code":"28690","city":"Brunete","country_code":"ESP","latitude":40.4086268,"longitude":-3.9970381},{"name":"Sina ADI","category_code":"software","raised_amount":0,"location":{"type":"Point","coordinates":[43.4057593,-5.8063417]},"description":"Central","address1":"avd\/ Gij\u00c3\u00b3n, 23","address2":"","zip_code":"33420","city":"Lugones","country_code":"ESP","latitude":43.4057593,"longitude":-5.8063417},{"name":"Efebege","category_code":"consulting","raised_amount":0,"location":{"type":"Point","coordinates":[39.4502107,-0.3924646]},"description":"Efebege","address1":"General Barroso, 66","address2":"","zip_code":"46017","city":"Valencia","country_code":"ESP","latitude":39.4502107,"longitude":-0.3924646},{"name":"Unkasoft Advergaming","category_code":"mobile","raised_amount":1750000,"location":{"type":"Point","coordinates":[40.4474363,-3.6714915]},"description":"Madrid Office (marketing)","address1":"Nieremberg 8, Bajo A","address2":"","zip_code":"28002","city":"Madrid","country_code":"ESP","latitude":40.4474363,"longitude":-3.6714915},{"name":"Monema Communications","category_code":"enterprise","raised_amount":0,"location":{"type":"Point","coordinates":[42.4634876,-2.4476102]},"description":"Main Headquarters","address1":"Gran Via 17","address2":"","zip_code":"26002","city":"Logro\u00c3\u00b1o","country_code":"ESP","latitude":42.4634876,"longitude":-2.4476102},{"name":"Intergrid","category_code":"network_hosting","raised_amount":0,"location":{"type":"Point","coordinates":[41.3806494,2.1687187]},"description":"Intergrid IDC","address1":"Carrer d'en Roig","address2":"","zip_code":"08001","city":"Barcelona","country_code":"ESP","latitude":41.3806494,"longitude":2.1687187},{"name":"SevenClick","category_code":"mobile","raised_amount":0,"location":{"type":"Point","coordinates":[41.6329538,-0.8809904]},"description":"HeadOffices","address1":"Ronda del Canal Imperial de Arag\u00c3\u00b3n 14","address2":"","zip_code":"50197","city":"zaragoza","country_code":"ESP","latitude":41.6329538,"longitude":-0.8809904},{"name":"TravelCLICK","category_code":"hospitality","raised_amount":0,"location":{"type":"Point","coordinates":[41.3850639,2.1734035]},"description":"","address1":"","address2":"","zip_code":"","city":"Barcelona","country_code":"ESP","latitude":41.3850639,"longitude":2.1734035},{"name":"Nexway","category_code":"ecommerce","raised_amount":14000000,"location":{"type":"Point","coordinates":[40.4142986,-3.7033074]},"description":"Nexway Iberica","address1":"C\/ Duque de Fern\u00c3\u00a1n N\u00c3\u00ba\u00c3\u00b1ez N\u00c2\u00ba2 2\u00c2\u00ba Oficina 2","address2":"","zip_code":"28012","city":"Madrid","country_code":"ESP","latitude":40.4142986,"longitude":-3.7033074},{"name":"DAEDALUS - Data, Decisions and Language","category_code":"software","raised_amount":0,"location":{"type":"Point","coordinates":[40.4372542,-3.6866654]},"description":"Headquarters","address1":"Lopez de Hoyos 15","address2":"","zip_code":"28006","city":"Madrid","country_code":"ESP","latitude":40.4372542,"longitude":-3.6866654},{"name":"Gennio","category_code":"web","raised_amount":600000,"location":{"type":"Point","coordinates":[40.4346935,-3.6782829]},"description":"Madrid Office","address1":"Diego de Le\u00c3\u00b3n, 47","address2":"","zip_code":"28016","city":"Madrid","country_code":"ESP","latitude":40.4346935,"longitude":-3.6782829},{"name":"YouAre","category_code":"mobile","raised_amount":0,"location":{"type":"Point","coordinates":[37.3384716,-5.8386688]},"description":"YouAre Office","address1":"C\/ Sargento Vasallo 8","address2":"","zip_code":"41500","city":"Alcala de Guadaira","country_code":"ESP","latitude":37.3384716,"longitude":-5.8386688},{"name":"Tata Communications","category_code":"other","raised_amount":0,"location":{"type":"Point","coordinates":[41.6252901,-4.7261288]},"description":"Spain Office","address1":"Avenida de Europa 4, Bajo A","address2":"28108 Alcobendas","zip_code":"","city":"Madrid","country_code":"ESP","latitude":41.6252901,"longitude":-4.7261288},{"name":"Zankyou","category_code":"web","raised_amount":0,"location":{"type":"Point","coordinates":[40.6070897,-3.6912754]},"description":"Madrid","address1":"Faraday 7","address2":"","zip_code":"28049","city":"Madrid","country_code":"ESP","latitude":40.6070897,"longitude":-3.6912754},{"name":"alteregoweb","category_code":"web","raised_amount":0,"location":{"type":"Point","coordinates":[42.2674977,2.9608395]},"description":"","address1":"Avda. Maria \u00c0ngels Anglada,","address2":"2 1er 1a","zip_code":"17600","city":"Figueres, Girona","country_code":"ESP","latitude":42.2674977,"longitude":2.9608395},{"name":"Ohlala! Mobile","category_code":"mobile","raised_amount":0,"location":{"type":"Point","coordinates":[40.4328978,-3.6496952]},"description":"","address1":"Calle Alcal\u00c3\u00a1 302","address2":"Planta 1, Oficina 5","zip_code":"28027","city":"Madrid","country_code":"ESP","latitude":40.4328978,"longitude":-3.6496952},{"name":"Comunitae","category_code":"finance","raised_amount":3500000,"location":{"type":"Point","coordinates":[40.4905109,-3.7033403]},"description":"Headquarter","address1":"Calle Nuria 29","address2":"","zip_code":"28034","city":"Madrid","country_code":"ESP","latitude":40.4905109,"longitude":-3.7033403},{"name":"Velneo","category_code":"software","raised_amount":0,"location":{"type":"Point","coordinates":[42.1638716,-8.6105703]},"description":"","address1":"","address2":"","zip_code":"36400","city":"Vigo","country_code":"ESP","latitude":42.1638716,"longitude":-8.6105703},{"name":"Nubesis","category_code":"software","raised_amount":130000,"location":{"type":"Point","coordinates":[39.5481824,-0.4614394]},"description":"PC Universitat Val\u00c3\u00a8ncia","address1":"Agustin Escardino 9","address2":"","zip_code":"46980","city":"Paterna (Valencia)","country_code":"ESP","latitude":39.5481824,"longitude":-0.4614394},{"name":"Mobiquus","category_code":"mobile","raised_amount":0,"location":{"type":"Point","coordinates":[41.4322413,2.163444]},"description":"Barcelona Office","address1":"","address2":"","zip_code":"08031","city":"Barcelona","country_code":"ESP","latitude":41.4322413,"longitude":2.163444},{"name":"Seguronline","category_code":"ecommerce","raised_amount":0,"location":{"type":"Point","coordinates":[40.4654916,-3.691617]},"description":"Madrid Office","address1":"C\/ Bravo Murillo, 371, 1\u00c2\u00aa","address2":"","zip_code":"28020","city":"Madrid","country_code":"ESP","latitude":40.4654916,"longitude":-3.691617},{"name":"DOMODESK","category_code":"mobile","raised_amount":0,"location":{"type":"Point","coordinates":[39.4612679,-0.3983456]},"description":"World Headquarters","address1":"C\/Alqueria de Benlloch 24","address2":"","zip_code":"46014","city":"Valencia","country_code":"ESP","latitude":39.4612679,"longitude":-0.3983456},{"name":"Hudson International Properties","category_code":"other","raised_amount":0,"location":{"type":"Point","coordinates":[36.4788337,-4.9951466]},"description":"Hi Properties","address1":"Commercial Guadalmina","address2":"L108","zip_code":"29860","city":"Marbella","country_code":"ESP","latitude":36.4788337,"longitude":-4.9951466},{"name":"ISID","category_code":"software","raised_amount":0,"location":{"type":"Point","coordinates":[40.4353746,-3.686534]},"description":"Headquarters","address1":"Calle Serano 77","address2":"","zip_code":"28006","city":"Madrid","country_code":"ESP","latitude":40.4353746,"longitude":-3.686534},{"name":"Doctoralia","category_code":"web","raised_amount":0,"location":{"type":"Point","coordinates":[41.387917,2.1699187]},"description":"","address1":"","address2":"","zip_code":"","city":"Barcelona","country_code":"ESP","latitude":41.387917,"longitude":2.1699187},{"name":"Fiabee","category_code":"network_hosting","raised_amount":0,"location":{"type":"Point","coordinates":[41.4320885,2.1429029]},"description":"Barcelona - R+D office","address1":"","address2":"","zip_code":"08172","city":"Barcelona","country_code":"ESP","latitude":41.4320885,"longitude":2.1429029},{"name":"Sowre","category_code":"consulting","raised_amount":0,"location":{"type":"Point","coordinates":[41.3943671,2.1491951]},"description":"Spain headquarter","address1":"Muntaner 231","address2":"","zip_code":"08021","city":"Barcelona","country_code":"ESP","latitude":41.3943671,"longitude":2.1491951},{"name":"Openbravo","category_code":"software","raised_amount":17000000,"location":{"type":"Point","coordinates":[41.3935324,2.1660785]},"description":"Branch","address1":"Pau Claris 138","address2":"","zip_code":"08009","city":"Barcelona","country_code":"ESP","latitude":41.3935324,"longitude":2.1660785},{"name":"IMASTE","category_code":"enterprise","raised_amount":700000,"location":{"type":"Point","coordinates":[40.4272451,-3.6755166]},"description":"Headquarters","address1":"Conde Pe\u00f1alver 22","address2":"","zip_code":"28006","city":"Madrid","country_code":"ESP","latitude":40.4272451,"longitude":-3.6755166},{"name":"iwannagothere","category_code":"other","raised_amount":0,"location":{"type":"Point","coordinates":[40.4539547,-3.7003565]},"description":"Madrid Office","address1":"Salamanca 17","address2":"","zip_code":"28020","city":"madrid","country_code":"ESP","latitude":40.4539547,"longitude":-3.7003565},{"name":"Tuenti Technologies","category_code":"social","raised_amount":9000000,"location":{"type":"Point","coordinates":[40.4158236,-3.696277]},"description":"","address1":"Plaza Cortes 2","address2":"","zip_code":"","city":"Madrid","country_code":"ESP","latitude":40.4158236,"longitude":-3.696277},{"name":"PowerVote","category_code":"hardware","raised_amount":0,"location":{"type":"Point","coordinates":[40.4346935,-3.6782829]},"description":"PowerVote Spain","address1":"c\/ Diego de leon, 47","address2":"","zip_code":"28006","city":"Madrid","country_code":"ESP","latitude":40.4346935,"longitude":-3.6782829},{"name":"Dinahosting","category_code":"network_hosting","raised_amount":0,"location":{"type":"Point","coordinates":[42.8881883,-8.5470476]},"description":"Headquarters","address1":"R\u00c3\u00baa das Salvadas 41","address2":"","zip_code":"15705","city":"Santiago de Compostela","country_code":"ESP","latitude":42.8881883,"longitude":-8.5470476},{"name":"Arroba","category_code":"advertising","raised_amount":0,"location":{"type":"Point","coordinates":[40.5558192,-3.8976941]},"description":"Madrid Office","address1":"C\/ sirena 3","address2":"","zip_code":"28290","city":"Las rozas, Madrid","country_code":"ESP","latitude":40.5558192,"longitude":-3.8976941},{"name":"Web Piston","category_code":"ecommerce","raised_amount":0,"location":{"type":"Point","coordinates":[40.458178,-3.6845894]},"description":"Web Piston Europa","address1":"Alberto Alcocer 24","address2":"","zip_code":"28036","city":"Madrid","country_code":"ESP","latitude":40.458178,"longitude":-3.6845894},{"name":"Bidoo","category_code":"web","raised_amount":0,"location":{"type":"Point","coordinates":[41.5368215,2.1029229]},"description":"Bidoo Headquarter","address1":"Carrer Sant Ferra S\/N","address2":"Zona herm\u00c3\u00a9tica","zip_code":"08805","city":"Sabadell","country_code":"ESP","latitude":41.5368215,"longitude":2.1029229},{"name":"ASPgems","category_code":"software","raised_amount":0,"location":{"type":"Point","coordinates":[40.4165967,-3.6992667]},"description":"Headquarters","address1":"Carrera de San Jeronimo 15","address2":"","zip_code":"28013","city":"Madrid","country_code":"ESP","latitude":40.4165967,"longitude":-3.6992667},{"name":"*faircompanies","category_code":"cleantech","raised_amount":0,"location":{"type":"Point","coordinates":[41.3803265,2.1762262]},"description":"Barcelona Headquarters","address1":"Carrer Escudellers Blancs 7, 2","address2":"","zip_code":"08002","city":"Barcelona","country_code":"ESP","latitude":41.3803265,"longitude":2.1762262},{"name":"quimica_visual","category_code":"web","raised_amount":0,"location":{"type":"Point","coordinates":[41.3723033,2.1560753]},"description":"Barcelona","address1":"","address2":"","zip_code":"08004","city":"Barcelona","country_code":"ESP","latitude":41.3723033,"longitude":2.1560753},{"name":"JamesList","category_code":"ecommerce","raised_amount":0,"location":{"type":"Point","coordinates":[36.5099367,-4.8863523]},"description":"","address1":"","address2":"","zip_code":"","city":"Marbella","country_code":"ESP","latitude":36.5099367,"longitude":-4.8863523},{"name":"Virgin Play","category_code":"games_video","raised_amount":3860000,"location":{"type":"Point","coordinates":[40.4273082,-3.6895115]},"description":"Corporate Headquarters","address1":"Paseo de la Castellana, 9-11","address2":"","zip_code":"28046","city":"Madrid","country_code":"ESP","latitude":40.4273082,"longitude":-3.6895115},{"name":"Hostarting","category_code":"web","raised_amount":0,"location":{"type":"Point","coordinates":[39.8725119,-4.0210296]},"description":"Hostarting","address1":"Recodo del Pinar 9","address2":"","zip_code":"45003","city":"Toledo","country_code":"ESP","latitude":39.8725119,"longitude":-4.0210296},{"name":"U-Play Studios","category_code":"software","raised_amount":651000,"location":{"type":"Point","coordinates":[41.4063346,2.1920231]},"description":"Office","address1":"C\/Liacuna 162-164","address2":"08018 Barcelona","zip_code":"","city":"Barcelona","country_code":"ESP","latitude":41.4063346,"longitude":2.1920231},{"name":"Iris Experience","category_code":"advertising","raised_amount":583000,"location":{"type":"Point","coordinates":[41.3927014,2.156538]},"description":"","address1":"186 Rossell\u00c3\u00b3","address2":"","zip_code":"","city":"Barcelona","country_code":"ESP","latitude":41.3927014,"longitude":2.156538},{"name":"iContainers","category_code":"ecommerce","raised_amount":150000,"location":{"type":"Point","coordinates":[41.3763043,2.1752709]},"description":"Head Office","address1":"Diputaci\u00f3 297","address2":"3\u00ba1\u00ba","zip_code":"08009","city":"Barcelona","country_code":"ESP","latitude":41.3763043,"longitude":2.1752709},{"name":"Undead Code Studios","category_code":"games_video","raised_amount":0,"location":{"type":"Point","coordinates":[40.6367104,-3.9980485]},"description":"Spain Headquarters","address1":"","address2":"","zip_code":"28400","city":"Madrid","country_code":"ESP","latitude":40.6367104,"longitude":-3.9980485},{"name":"Cokidoo","category_code":"other","raised_amount":0,"location":{"type":"Point","coordinates":[42.8995162,-8.5089455]},"description":"Santiago Office","address1":"","address2":"","zip_code":"15707","city":"Santiago de Compostela","country_code":"ESP","latitude":42.8995162,"longitude":-8.5089455},{"name":"efectividads","category_code":"advertising","raised_amount":0,"location":{"type":"Point","coordinates":[39.4862314,-0.3574186]},"description":"AdLemons Headquarters","address1":"Catedr\u00e1tico Agust\u00edn Escardino 9","address2":"","zip_code":"46980","city":"Paterna, Valencia","country_code":"ESP","latitude":39.4862314,"longitude":-0.3574186},{"name":"IntraWorlds","category_code":"software","raised_amount":0,"location":{"type":"Point","coordinates":[40.426858,-3.7015237]},"description":"IntraWorlds, S.L.","address1":"Fuencarral 93, 1d","address2":"","zip_code":"28004","city":"Madrid","country_code":"ESP","latitude":40.426858,"longitude":-3.7015237},{"name":"Chicisimo","category_code":"fashion","raised_amount":800000,"location":{"type":"Point","coordinates":[43.264499,-2.9308322]},"description":"Office","address1":"Calle Henao 14","address2":"n\u00ba 4, 4\u00baD","zip_code":"","city":"Bilbao","country_code":"ESP","latitude":43.264499,"longitude":-2.9308322},{"name":"Netsize","category_code":"mobile","raised_amount":16780000,"location":{"type":"Point","coordinates":[40.4167413,-3.7032498]},"description":"","address1":"Av. Europa 19 2\u00aa pta.","address2":"","zip_code":"28108","city":"Alcobendas","country_code":"ESP","latitude":40.4167413,"longitude":-3.7032498},{"name":"Tagmore Solutions","category_code":"mobile","raised_amount":250000,"location":{"type":"Point","coordinates":[40.4226918,-3.6883074]},"description":"Office","address1":"Serrano 16","address2":"First floor","zip_code":"28001","city":"Madrid","country_code":"ESP","latitude":40.4226918,"longitude":-3.6883074},{"name":"Taxi Fares app","category_code":"software","raised_amount":0,"location":{"type":"Point","coordinates":[40.4244585,-3.6990948]},"description":"","address1":"","address2":"","zip_code":"28004","city":"Madrid","country_code":"ESP","latitude":40.4244585,"longitude":-3.6990948},{"name":"ticketea","category_code":"ecommerce","raised_amount":5730000,"location":{"type":"Point","coordinates":[40.4455155,-3.7061764]},"description":"Office","address1":"Marques de Lema","address2":"7","zip_code":"28003","city":"Madrid","country_code":"ESP","latitude":40.4455155,"longitude":-3.7061764},{"name":"I6NET","category_code":"software","raised_amount":0,"location":{"type":"Point","coordinates":[40.4342873,-3.7056763]},"description":"Corporate offices","address1":"C\/ Magallanes, 13","address2":"","zip_code":"28015","city":"Madrid","country_code":"ESP","latitude":40.4342873,"longitude":-3.7056763},{"name":"cost4travel","category_code":"web","raised_amount":0,"location":{"type":"Point","coordinates":[40.4528711,-3.6149394]},"description":"Head office","address1":"Calle Francisco Jose Arroyo, 6","address2":"","zip_code":"28042","city":"Madrid","country_code":"ESP","latitude":40.4528711,"longitude":-3.6149394},{"name":"Genasys","category_code":"software","raised_amount":2780000,"location":{"type":"Point","coordinates":[40.4161835,-3.6988729]},"description":"","address1":"C\/ Ventura de la Vega 5","address2":"28014 Madrid","zip_code":"","city":"Madrid","country_code":"ESP","latitude":40.4161835,"longitude":-3.6988729},{"name":"Teambox","category_code":"web","raised_amount":6750000,"location":{"type":"Point","coordinates":[41.4063346,2.1920231]},"description":"Barcelona Office","address1":"Ronda Universitat 31","address2":"5o 4a","zip_code":"08007","city":"Barcelona","country_code":"ESP","latitude":41.4063346,"longitude":2.1920231},{"name":"BuyVIP","category_code":"ecommerce","raised_amount":20000000,"location":{"type":"Point","coordinates":[40.4167413,-3.7032498]},"description":"Office","address1":"33. Edificio Atica 4 planta 2","address2":"28224 Pozuelo de Alarc\u00c3\u00b3n","zip_code":"","city":"Madrid","country_code":"ESP","latitude":40.4167413,"longitude":-3.7032498},{"name":"ITERNOVA","category_code":"consulting","raised_amount":0,"location":{"type":"Point","coordinates":[40.3401332,-1.1059614]},"description":"ITERNOVA TERUEL","address1":"Plaza Goya 4 bajos","address2":"","zip_code":"44001","city":"Teruel","country_code":"ESP","latitude":40.3401332,"longitude":-1.1059614}]